[
  { "name": "Salzburg, Österreich",     "lng":  13.0550, "lat":  47.8095 },
  { "name": "Braunau am Inn, Österreich","lng":  13.0333, "lat":  48.2500 },
  { "name": "Lübeck, Deutschland",       "lng":  10.6866, "lat":  53.8655 },
  { "name": "Salzburg, Österreich",     "lng":  13.0550, "lat":  47.8095 },
  { "name": "Lima, Peru",               "lng": -77.0428, "lat": -12.0464 },
  { "name": "Mexico City, Mexiko",      "lng": -99.1332, "lat":  19.4326 },
  { "name": "Ried im Innkreis, Österreich", "lng": 13.4833, "lat": 48.2100 },
  { "name": "Manila, Philippinen",         "lng": 120.9842, "lat":  14.5995 }
]
